CAMIS,DBA,BORO,BUILDING,STREET,ZIPCODE,PHONE,CUISINE DESCRIPTION,INSPECTION DATE,ACTION,VIOLATION CODE,VIOLATION DESCRIPTION,CRITICAL FLAG,SCORE,GRADE,GRADE DATE,RECORD DATE,INSPECTION TYPE,Latitude,Longitude,Community Board,Council District,Census Tract,BIN,BBL,NTA
50014362,URUBAMBA,Queens,8620,37TH AVE,11372,7186722224,Peruvian,04/09/19,Violations were cited in the following area(s).,04L,Evidence of mice or live mice present in facility's food and/or non-food areas.,Critical,11,,,08/28/2021,Cycle Inspection / Initial Inspection,40.75015354,-73.8803194,403,21,27900,4036257,4014740001,QN28
41626598,SAL'S FAMILY PIZZA,Manhattan,384,BROOME STREET,10013,2129250440,Pizza,09/19/2018,Establishment re-opened by DOHMH.,18C,"Notice of the Department of Board of Health mutilated, obstructed, or removed.",Not Critical,,,,08/28/2021,Administrative Miscellaneous / Reopening Inspection,40.72040228,-73.99657281,102,1,4100,1077744,1004800041,MN24
41320240,THREE BROTHER'S PIZZERIA,Queens,10901,GUY R BREWER BOULEVARD,11433,7185262779,Pizza,07/17/2017,Violations were cited in the following area(s).,02G,Cold food item held above 41º F (smoked fish and reduced oxygen packaged foods above 38 ºF) except during necessary preparation.,Critical,12,A,07/17/2017,08/28/2021,Cycle Inspection / Initial Inspection,40.6947411,-73.78990413,412,27,25800,4216706,4101810063,QN01
41247493,MY PLACE FAMILY PIZZA,Bronx,240,EAST  198 STREET,10458,7185622399,Pizza,03/30/2018,Establishment re-opened by DOHMH.,10F,"Non-food contact surface improperly constructed. Unacceptable material used. Non-food contact surface or equipment improperly maintained and/or not properly sealed, raised, spaced or movable to allow accessibility for cleaning on all sides, above and underneath the unit.",Not Critical,2,P,03/30/2018,08/28/2021,Cycle Inspection / Reopening Inspection,40.86930679,-73.88955913,207,15,40501,2017054,2033010054,BX05
50056949,SABI SUSHI,Manhattan,1,NEW YORK PLZ,10004,6468632374,Japanese,01/24/2018,Violations were cited in the following area(s).,02D,"Precooked potentially hazardous food from commercial food processing establishment that is supposed to be heated, but is not heated to 140º F within 2 hours.",Critical,7,A,01/24/2018,08/28/2021,Cycle Inspection / Re-inspection,40.70253319,-74.01256178,101,1,900,1000005,1000047501,MN25
50059238,SANGARITA'S,Queens,4002,BELL BLVD,11361,7184282727,Tapas,08/28/2019,Violations were cited in the following area(s).,16B,"The original nutritional fact labels and/or ingredient label for a cooking oil, shortening or margarine or food item sold in bulk, or acceptable manufacturer’s documentation not maintained on site.",Not Critical,,,,08/28/2021,Trans Fat / Initial Inspection,40.76414551,-73.77127718,411,19,112300,4137556,4062370027,QN46
50081804,NEW SUNNY EAST 88,Manhattan,1680,1 AVENUE,10128,2128769332,Chinese,03/12/20,Violations were cited in the following area(s).,10F,"Non-food contact surface improperly constructed. Unacceptable material used. Non-food contact surface or equipment improperly maintained and/or not properly sealed, raised, spaced or movable to allow accessibility for cleaning on all sides, above and underneath the unit.",Not Critical,25,,,08/28/2021,Cycle Inspection / Initial Inspection,40.77787711,-73.94862706,108,5,14402,1050607,1015670046,MN32
41618228,FIVE GUYS FAMOUS BURGERS AND FRIES,Manhattan,343,7 AVENUE,10001,2125649804,Hamburgers,02/23/2018,Violations were cited in the following area(s).,10F,"Non-food contact surface improperly constructed. Unacceptable material used. Non-food contact surface or equipment improperly maintained and/or not properly sealed, raised, spaced or movable to allow accessibility for cleaning on all sides, above and underneath the unit.",Not Critical,9,A,02/23/2018,08/28/2021,Cycle Inspection / Initial Inspection,40.74798424,-73.9927963,105,3,9500,1015136,1008050002,MN17
50001301,JS PERRY'S DINER,Bronx,2783,3 AVENUE,10455,7182924385,American,08/29/2019,Violations were cited in the following area(s).,10F,"Non-food contact surface improperly constructed. Unacceptable material used. Non-food contact surface or equipment improperly maintained and/or not properly sealed, raised, spaced or movable to allow accessibility for cleaning on all sides, above and underneath the unit.",Not Critical,13,A,08/29/2019,08/28/2021,Cycle Inspection / Initial Inspection,40.8148407,-73.91993519,201,8,6500,2000000,2023270007,BX34
50011938,"C & Y NOODLE, HOME NOODLE",Queens,41-28,MAIN STREET,11355,7188889051,Chinese,11/29/2018,Violations were cited in the following area(s).,02B,Hot food item not held at or above 140º F.,Critical,17,,,08/28/2021,Cycle Inspection / Initial Inspection,40.75734855,-73.82907564,407,20,84900,4312192,4050420035,QN22
41160885,HOP LEE RESTAURANT,Manhattan,16,MOTT STREET,10013,2129626475,Chinese,05/15/2018,Establishment Closed by DOHMH. Violations were cited in the following area(s) and those requiring immediate action were addressed.,06B,"Tobacco use, eating, or drinking from open container in food preparation, food storage or dishwashing area observed.",Critical,56,,,08/28/2021,Cycle Inspection / Re-inspection,40.71414425,-73.99873026,103,1,2900,1001686,1001620009,MN27
40384340,FRIEND OF A FARMER,Manhattan,77,IRVING PLACE,10003,2124772188,American,05/24/2019,Violations were cited in the following area(s).,08A,Facility not vermin proof. Harborage or conditions conducive to attracting vermin to the premises and/or allowing vermin to exist.,Not Critical,32,,,08/28/2021,Cycle Inspection / Initial Inspection,40.73690034,-73.98664868,105,2,5000,1017899,1008740065,MN21
50085330,AMPLE HILLS CREAMERY,Manhattan,141,8 AVENUE,10011,2126453200,Frozen Desserts,07/16/2019,Violations were cited in the following area(s).,10F,"Non-food contact surface improperly constructed. Unacceptable material used. Non-food contact surface or equipment improperly maintained and/or not properly sealed, raised, spaced or movable to allow accessibility for cleaning on all sides, above and underneath the unit.",Not Critical,2,A,07/16/2019,08/28/2021,Cycle Inspection / Initial Inspection,40.74157819,-74.0012017,104,3,8300,1013054,1007400037,MN13
40402337,J & M BAKERY,Queens,30-oct,36 AVENUE,11106,7187841511,Bakery Products/Desserts,09/20/2017,Violations were cited in the following area(s).,02B,Hot food item not held at or above 140º F.,Critical,22,,,08/28/2021,Cycle Inspection / Initial Inspection,40.75686186,-73.930379,401,26,5100,4007881,4005990130,QN68
50006236,FRENCH LOUIE,Brooklyn,320,ATLANTIC AVENUE,11201,7189351200,French,06/26/2019,Violations were cited in the following area(s).,06C,"Food not protected from potential source of contamination during storage, preparation, transportation, display or service.",Critical,13,A,06/26/2019,08/28/2021,Cycle Inspection / Re-inspection,40.68816986,-73.98806114,302,33,4300,3000840,3001820014,BK38
50037946,OLE MEXICAN GRILLE,Queens,12611,15TH AVE,11356,7183530457,Mexican,01/18/2018,Violations were cited in the following area(s).,10F,"Non-food contact surface improperly constructed. Unacceptable material used. Non-food contact surface or equipment improperly maintained and/or not properly sealed, raised, spaced or movable to allow accessibility for cleaning on all sides, above and underneath the unit.",Not Critical,8,A,01/18/2018,08/28/2021,Cycle Inspection / Initial Inspection,40.78497103,-73.84192853,407,19,92500,4098463,4040930048,QN23
50037946,OLE MEXICAN GRILLE,Queens,12611,15TH AVE,11356,7183530457,Mexican,01/18/2018,Violations were cited in the following area(s).,10F,"Non-food contact surface improperly constructed. Unacceptable material used. Non-food contact surface or equipment improperly maintained and/or not properly sealed, raised, spaced or movable to allow accessibility for cleaning on all sides, above and underneath the unit.",Not Critical,8,A,01/18/2018,08/28/2021,Cycle Inspection / Initial Inspection,40.78497103,-73.84192853,407,19,92500,4098463,4040930048,QN23
50050729,EL MEKKAH BAR & GRILL,Brooklyn,277,WYCKOFF AVENUE,11237,9175183475,American,10/19/2017,Violations were cited in the following area(s).,04L,Evidence of mice or live mice present in facility's food and/or non-food areas.,Critical,25,,,08/28/2021,Cycle Inspection / Initial Inspection,40.70087635,-73.91350514,304,37,44100,3075983,3033200002,BK77
50045780,FOTEH'S TANDOORI,Brooklyn,2650,CONEY ISLAND AVENUE,11223,7189758787,Russian,07/19/2017,Violations were cited in the following area(s).,04K,Evidence of rats or live rats present in facility's food and/or non-food areas.,Critical,29,,,08/28/2021,Cycle Inspection / Initial Inspection,40.59211562,-73.96073175,315,48,39000,3194972,3071840139,BK25
50005163,FORTUNE BAKERY,Brooklyn,5612,8 AVENUE,11220,7185677880,Chinese,09/27/2019,Violations were cited in the following area(s).,06D,"Food contact surface not properly washed, rinsed and sanitized after each use and following any activity when contamination may have occurred.",Critical,29,,,08/28/2021,Cycle Inspection / Initial Inspection,40.63762242,-74.00735027,307,38,10400,3015537,3008420042,BK34
41046225,WINNERS BAR,Queens,8267,BROADWAY,11373,7185050403,Bottled Beverages,07/24/2018,Violations were cited in the following area(s).,06C,"Food not protected from potential source of contamination during storage, preparation, transportation, display or service.",Critical,5,A,07/24/2018,08/28/2021,Cycle Inspection / Initial Inspection,40.74173591,-73.88085424,404,25,46900,4039026,4015610001,QN29
40383825,RUSSIAN SAMOVAR,Manhattan,256,WEST   52 STREET,10019,2127570168,Russian,08/16/2021,Violations were cited in the following area(s).,04N,"Filth flies or food/refuse/sewage-associated (FRSA) flies present in facility’s food and/or non-food areas.  Filth flies include house flies, little house flies, blow flies, bottle flies and flesh flies.  Food/refuse/sewage-associated flies include fruit flies, drain flies and Phorid flies.",Critical,21,,,08/28/2021,Cycle Inspection / Initial Inspection,40.76310426,-73.9841923,105,3,13100,1024821,1010230059,MN17
50009411,DELICIAS CALENAS #4,Queens,9418,SUTPHIN BLVD,11435,7182062262,Spanish,11/07/18,Violations were cited in the following area(s).,02B,Hot food item not held at or above 140º F.,Critical,35,,,08/28/2021,Cycle Inspection / Initial Inspection,40.69883588,-73.80682686,412,27,20800,4213959,4099930025,QN61
50051888,WINGSTOP,Staten Island,1756,FOREST AVENUE,10303,7329865811,Chicken,10/10/18,Violations were cited in the following area(s).,06C,"Food not protected from potential source of contamination during storage, preparation, transportation, display or service.",Critical,9,A,10/10/18,08/28/2021,Cycle Inspection / Initial Inspection,40.6249676,-74.14745666,501,49,30301,5150289,5014790001,SI12
41395517,CITI FIELD PRESS KITCHEN,Queens,0,126th st & ROOSEVELT AVENUE,,7185958100,American,06/13/2017,Violations were cited in the following area(s).,06E,"Sanitized equipment or utensil, including in-use food dispensing utensil, improperly used or stored.",Critical,5,A,06/13/2017,08/28/2021,Cycle Inspection / Initial Inspection,0,0,,,,,4,
50018394,HADI RESTAURANT,Brooklyn,683,CONEY ISLAND AVENUE,11218,3472401175,Middle Eastern,11/25/2019,Violations were cited in the following area(s).,10B,Plumbing not properly installed or maintained; anti-siphonage or backflow prevention device not provided where required; equipment or floor not properly drained; sewage disposal system in disrepair or not functioning properly.,Not Critical,39,,,08/28/2021,Cycle Inspection / Initial Inspection,40.64072011,-73.96919227,314,40,152200,3118216,3051410143,BK42
50080167,CAFECITO DEL ARTE,Manhattan,181,EAST  108 STREET,10029,3472397357,Coffee/Tea,07/09/19,Violations were cited in the following area(s).,20D,"“Choking first aid” poster not posted. “Alcohol and pregnancy” warning sign not posted. Resuscitation equipment: exhaled air resuscitation masks (adult & pediatric), latex gloves, sign not posted.",Not Critical,,,,08/28/2021,Administrative Miscellaneous / Re-inspection,40.79312494,-73.9443067,111,8,17200,1052139,1016360132,MN33
50041493,THAI MAX,Bronx,200,BAYCHESTER AVENUE,10475,9179811148,Thai,02/12/18,Violations were cited in the following area(s).,20F,Current letter grade sign not posted.,Not Critical,,,,08/28/2021,Administrative Miscellaneous / Compliance Inspection,40.86590541,-73.83042975,210,12,46201,2120098,2051410006,BX13
50109916,OSTERIA CARLINA,Manhattan,455,HUDSON STREET,10014,2487194222,,01/01/00,,,,Not Applicable,,,,08/28/2021,,40.73127415,-74.00669674,102,3,6900,1010413,1006030065,MN23
50001398,GRACE STREET,Manhattan,17,WEST   32 STREET,10001,6466123821,Coffee/Tea,06/06/18,Violations were cited in the following area(s).,02G,Cold food item held above 41º F (smoked fish and reduced oxygen packaged foods above 38 ºF) except during necessary preparation.,Critical,7,,,08/28/2021,Cycle Inspection / Initial Inspection,40.74745939,-73.98620987,105,4,7600,1015849,1008340029,MN17
41432588,TOASTIES,Manhattan,23,EAST   51 STREET,10022,63717676__,American,12/06/17,Violations were cited in the following area(s).,10F,"Non-food contact surface improperly constructed. Unacceptable material used. Non-food contact surface or equipment improperly maintained and/or not properly sealed, raised, spaced or movable to allow accessibility for cleaning on all sides, above and underneath the unit.",Not Critical,11,A,12/06/17,08/28/2021,Cycle Inspection / Initial Inspection,40.75866172,-73.97554103,105,4,10200,1035470,1012870014,MN17
41433057,NEW SHUN WEI RESTAURANT,Manhattan,45,CATHERINE STREET,10038,2129647590,Chinese,07/26/2019,Violations were cited in the following area(s).,10F,"Non-food contact surface improperly constructed. Unacceptable material used. Non-food contact surface or equipment improperly maintained and/or not properly sealed, raised, spaced or movable to allow accessibility for cleaning on all sides, above and underneath the unit.",Not Critical,23,B,07/26/2019,08/28/2021,Cycle Inspection / Re-inspection,40.71189076,-73.99689428,103,1,800,1003323,1002760053,MN27
50010395,MCDONALD'S,Manhattan,208,DYCKMAN STREET,10040,2125692909,Hamburgers,09/13/2019,Violations were cited in the following area(s).,04L,Evidence of mice or live mice present in facility's food and/or non-food areas.,Critical,10,A,09/13/2019,08/28/2021,Cycle Inspection / Initial Inspection,40.86502192,-73.92695358,112,10,28700,1064227,1021750049,MN35
50049598,LAST STOP BAR & GRILL,Bronx,4609,WHITE PLAINS ROAD,10470,3474274543,Latin American,04/28/2018,Violations were cited in the following area(s).,10F,"Non-food contact surface improperly constructed. Unacceptable material used. Non-food contact surface or equipment improperly maintained and/or not properly sealed, raised, spaced or movable to allow accessibility for cleaning on all sides, above and underneath the unit.",Not Critical,7,,,08/28/2021,Inter-Agency Task Force / Initial Inspection,40.90234036,-73.851307,212,11,41400,2071123,2050830061,BX62
50011127,MINT MASALA,Manhattan,95,MACDOUGAL STREET,10012,2127772888,Indian,12/17/2019,Violations were cited in the following area(s).,10H,Proper sanitization not provided for utensil ware washing operation.,Not Critical,13,A,12/17/2019,08/28/2021,Cycle Inspection / Re-inspection,40.72939143,-74.00100665,102,1,6500,1008735,1005420053,MN23
50077226,OKAWA,Queens,7705A,37TH AVE,11372,7186721818,Japanese,11/19/2019,Violations were cited in the following area(s).,08A,Facility not vermin proof. Harborage or conditions conducive to attracting vermin to the premises and/or allowing vermin to exist.,Not Critical,13,A,11/19/2019,08/28/2021,Cycle Inspection / Re-inspection,40.74927553,-73.88880968,403,25,28700,4029588,4012770036,QN28
50046901,WIN WAY CHINESE RESTAURANT,Brooklyn,2830,CONEY ISLAND AVENUE,11235,7188918838,Chinese,05/12/16,Violations were cited in the following area(s).,04M,Live roaches present in facility's food and/or non-food areas.,Critical,45,,,08/28/2021,Pre-permit (Operational) / Initial Inspection,40.58756189,-73.9603816,313,48,37000,3196031,3072240100,BK19
50036360,HOUSEMAN RESTAURANT,Manhattan,508,GREENWICH STREET,10013,2126410654,American,02/01/18,Violations were cited in the following area(s).,02B,Hot food item not held at or above 140º F.,Critical,13,A,02/01/18,08/28/2021,Cycle Inspection / Initial Inspection,40.72571583,-74.00914952,102,3,3700,1010349,1005950076,MN24
50065563,BERIKONI,Brooklyn,125,BRIGHTON BEACH AVENUE,11235,6465730689,Middle Eastern,04/22/2019,Violations were cited in the following area(s).,05D,Hand washing facility not provided in or near food preparation area and toilet room. Hot and cold running water at adequate pressure to enable cleanliness of employees not provided at facility. Soap and an acceptable hand-drying device not provided.,Critical,38,,,08/28/2021,Cycle Inspection / Initial Inspection,40.57635437,-73.96732861,313,48,36200,3340585,3086690055,BK19
41719517,TORST,Brooklyn,615,MANHATTAN AVENUE,11222,7183896034,American,11/28/2018,Violations were cited in the following area(s).,04N,"Filth flies or food/refuse/sewage-associated (FRSA) flies present in facility’s food and/or non-food areas.  Filth flies include house flies, little house flies, blow flies, bottle flies and flesh flies.  Food/refuse/sewage-associated flies include fruit flies, drain flies and Phorid flies.",Critical,10,A,11/28/2018,08/28/2021,Cycle Inspection / Re-inspection,40.72335877,-73.95056691,301,33,56900,3066710,3026790013,BK76
50044248,678 DELI,Queens,8820,VAN WYCK EXPY,11418,7188801496,Sandwiches,07/31/2018,Violations were cited in the following area(s).,02B,Hot food item not held at or above 140º F.,Critical,25,,,08/28/2021,Cycle Inspection / Initial Inspection,40.70212937,-73.81671014,409,29,14202,4196421,4093420033,QN54
50017467,MIS TIERRAS COLOMBIANAS,Queens,5408,ROOSEVELT AVE,11377,7186727272,Latin American,01/06/20,Violations were cited in the following area(s).,06E,"Sanitized equipment or utensil, including in-use food dispensing utensil, improperly used or stored.",Critical,12,,,08/28/2021,Cycle Inspection / Initial Inspection,40.74477923,-73.91034066,402,26,25100,4030988,4013230089,QN63
50033800,"CAFE, 911 MUSEUM",Manhattan,180,GREENWICH STREET,10007,2123128800,Coffee/Tea,12/02/16,Violations were cited in the following area(s).,06D,"Food contact surface not properly washed, rinsed and sanitized after each use and following any activity when contamination may have occurred.",Critical,10,A,12/02/16,08/28/2021,Cycle Inspection / Re-inspection,40.71120944,-74.01230371,101,1,1300,1088798,1000580001,MN25
50002052,OTTO'S TACOS,Manhattan,141,SECOND AVENUE,10003,6466784018,Tex-Mex,08/22/2017,Violations were cited in the following area(s).,10E,Accurate thermometer not provided in refrigerated or hot holding equipment.,Not Critical,19,,,08/28/2021,Cycle Inspection / Initial Inspection,40.72901197,-73.98737909,103,2,3800,1006746,1004640034,MN22
41466918,NUEVO MEXICO MEXICAN RESTAURANT,Brooklyn,489,5 AVENUE,11215,7188320050,Mexican,03/05/18,Violations were cited in the following area(s).,08C,Pesticide use not in accordance with label or applicable laws. Prohibited chemical used/stored. Open bait station used.,Not Critical,10,A,03/05/18,08/28/2021,Cycle Inspection / Initial Inspection,40.66759223,-73.98760344,306,39,13900,3022922,3010230004,BK37
50001962,AROME,Manhattan,325,BROADWAY,10007,2122337447,American,02/11/19,Violations were cited in the following area(s).,08A,Facility not vermin proof. Harborage or conditions conducive to attracting vermin to the premises and/or allowing vermin to exist.,Not Critical,57,,,08/28/2021,Cycle Inspection / Initial Inspection,40.71599139,-74.00478692,101,1,3300,1079211,1001520025,MN24
50063498,CAFE 48,Queens,21209,48TH AVE,11364,9173633861,Chinese,08/31/2017,Violations were cited in the following area(s).,04J,"Appropriately scaled metal stem-type thermometer or thermocouple not provided or used to evaluate temperatures of potentially hazardous foods during cooking, cooling, reheating and holding.",Critical,20,,,08/28/2021,Pre-permit (Operational) / Initial Inspection,40.7553054,-73.76892901,411,19,144700,4157308,4073290047,QN46
40525767,CAPRI II PIZZA,Bronx,149,DREISER LOOP,10475,7186713822,Pizza,02/05/19,Violations were cited in the following area(s).,04L,Evidence of mice or live mice present in facility's food and/or non-food areas.,Critical,17,,,08/28/2021,Cycle Inspection / Initial Inspection,40.87651579,-73.82991803,210,12,46201,2097469,2051410500,BX13
50075895,TEAS ME DEAR,Queens,39-01,MAIN STREET,11354,7183532302,"Juice, Smoothies, Fruit Salads",05/21/2018,Violations were cited in the following area(s).,06F,Wiping cloths soiled or not stored in sanitizing solution.,Critical,13,A,05/21/2018,08/28/2021,Pre-permit (Operational) / Initial Inspection,40.76016119,-73.83042205,407,20,87100,4112490,4049800005,QN22
40567533,THE THIRSTY SCHOLAR,Manhattan,155,2 AVENUE,10003,2127776514,American,03/05/19,Violations were cited in the following area(s).,10B,Plumbing not properly installed or maintained; anti-siphonage or backflow prevention device not provided where required; equipment or floor not properly drained; sewage disposal system in disrepair or not functioning properly.,Not Critical,59,,,08/28/2021,Cycle Inspection / Initial Inspection,40.72950324,-73.9870218,103,2,4000,1006797,1004650049,MN22
50038802,REGO PARK COFFEE SHOP,Queens,9414,63RD DR,11374,7184592233,American,09/06/18,Violations were cited in the following area(s).,04M,Live roaches present in facility's food and/or non-food areas.,Critical,23,,,08/28/2021,Cycle Inspection / Initial Inspection,40.72880751,-73.86314759,406,29,69300,4072133,4030830056,QN18
50080295,PARADISE LOUNGE,Queens,678,WOODWARD AVENUE,11385,2159324545,American,11/27/2019,Violations were cited in the following area(s).,06C,"Food not protected from potential source of contamination during storage, preparation, transportation, display or service.",Critical,12,A,11/27/2019,08/28/2021,Cycle Inspection / Re-inspection,40.7051799,-73.90619949,405,34,54900,4082941,4034680039,QN20
50066712,THE CAFE,Manhattan,2,WEST LOOP ROAD,10044,3475562243,Coffee/Tea,10/05/18,Violations were cited in the following area(s).,20F,Current letter grade sign not posted.,Not Critical,,,,08/28/2021,Administrative Miscellaneous / Initial Inspection,40.75654513,-73.95588069,108,5,23801,1090299,1013730035,MN31
50053120,DELICIAS MEXICANOS,Queens,10214,ROOSEVELT AVE,11368,7186724485,Mexican,09/17/2018,Violations were cited in the following area(s).,02G,Cold food item held above 41º F (smoked fish and reduced oxygen packaged foods above 38 ºF) except during necessary preparation.,Critical,38,,,08/28/2021,Cycle Inspection / Initial Inspection,40.74974264,-73.86381903,404,21,40500,4437314,4019740002,QN26
40366857,MALONEY'S BAR,Queens,8769,SUTPHIN BOULEVARD,11435,3472334472,American,12/26/2017,Violations were cited in the following area(s).,10F,"Non-food contact surface improperly constructed. Unacceptable material used. Non-food contact surface or equipment improperly maintained and/or not properly sealed, raised, spaced or movable to allow accessibility for cleaning on all sides, above and underneath the unit.",Not Critical,12,,,08/28/2021,Cycle Inspection / Initial Inspection,40.70516967,-73.80941251,412,24,23800,4207075,4096920052,QN61
41606952,EL PUERTO MEXICANO,Queens,84-28,JAMAICA AVENUE,11421,7185210720,Mexican,05/19/2016,Violations were cited in the following area(s).,10F,"Non-food contact surface improperly constructed. Unacceptable material used. Non-food contact surface or equipment improperly maintained and/or not properly sealed, raised, spaced or movable to allow accessibility for cleaning on all sides, above and underneath the unit.",Not Critical,12,A,05/19/2016,08/28/2021,Cycle Inspection / Re-inspection,40.6924704,-73.85938923,409,32,1000,4183719,4089190027,QN53
50001854,DUNKIN,Manhattan,2264,FREDERICK DOUGLASS BOULEVARD,,6465978172,Donuts,06/16/2017,Violations were cited in the following area(s).,08A,Facility not vermin proof. Harborage or conditions conducive to attracting vermin to the premises and/or allowing vermin to exist.,Not Critical,11,A,06/16/2017,08/28/2021,Cycle Inspection / Initial Inspection,0,0,,,,,1,
41136985,GLACKEN'S BAR,Bronx,135,EAST  149 STREET,10451,7185857082,American,10/16/2019,Violations were cited in the following area(s).,04N,"Filth flies or food/refuse/sewage-associated (FRSA) flies present in facility’s food and/or non-food areas.  Filth flies include house flies, little house flies, blow flies, bottle flies and flesh flies.  Food/refuse/sewage-associated flies include fruit flies, drain flies and Phorid flies.",Critical,20,,,08/28/2021,Cycle Inspection / Initial Inspection,40.81887014,-73.92849658,204,8,6300,2001114,2023520053,BX63
41258369,BLACK RABBIT BAR,Brooklyn,91,GREENPOINT AVENUE,11222,7183491595,American,12/01/17,Violations were cited in the following area(s).,06D,"Food contact surface not properly washed, rinsed and sanitized after each use and following any activity when contamination may have occurred.",Critical,11,,,08/28/2021,Cycle Inspection / Initial Inspection,40.72999524,-73.95640346,301,33,56500,3064736,3025580074,BK76
50091742,CHINA ONE,Brooklyn,8901,FLATLANDS AVENUE,11236,7186492121,Chinese,08/13/2019,Violations were cited in the following area(s).,04L,Evidence of mice or live mice present in facility's food and/or non-food areas.,Critical,12,A,08/13/2019,08/28/2021,Pre-permit (Operational) / Re-inspection,40.63981062,-73.90663404,318,46,96400,3224654,3080100009,BK50
40937799,ESTRELLA BAR & RESTAURANT,Bronx,1470,JEROME AVENUE,10452,7182937246,Latin American,01/05/19,Violations were cited in the following area(s).,04L,Evidence of mice or live mice present in facility's food and/or non-food areas.,Critical,12,A,01/05/19,08/28/2021,Cycle Inspection / Re-inspection,40.84160785,-73.91668986,204,14,22300,2008106,2028440001,BX63
50042664,MR PURPLE,Manhattan,180,ORCHARD STREET,10002,2122371790,American,02/25/2020,Violations were cited in the following area(s).,04N,"Filth flies or food/refuse/sewage-associated (FRSA) flies present in facility’s food and/or non-food areas.  Filth flies include house flies, little house flies, blow flies, bottle flies and flesh flies.  Food/refuse/sewage-associated flies include fruit flies, drain flies and Phorid flies.",Critical,23,,,08/28/2021,Cycle Inspection / Initial Inspection,40.72184548,-73.98830401,103,1,3001,1090121,1004127501,MN27
41616073,GRUENEBAUM'S BAKERY & CAFE,Bronx,5663,RIVERDALE AVENUE,10471,7184324779,Jewish/Kosher,08/22/2017,Violations were cited in the following area(s).,10F,"Non-food contact surface improperly constructed. Unacceptable material used. Non-food contact surface or equipment improperly maintained and/or not properly sealed, raised, spaced or movable to allow accessibility for cleaning on all sides, above and underneath the unit.",Not Critical,19,,,08/28/2021,Cycle Inspection / Initial Inspection,40.90609655,-73.90431219,208,11,32300,2086317,2059530001,BX22
41616073,GRUENEBAUM'S BAKERY & CAFE,Bronx,5663,RIVERDALE AVENUE,10471,7184324779,Jewish/Kosher,08/22/2017,Violations were cited in the following area(s).,10F,"Non-food contact surface improperly constructed. Unacceptable material used. Non-food contact surface or equipment improperly maintained and/or not properly sealed, raised, spaced or movable to allow accessibility for cleaning on all sides, above and underneath the unit.",Not Critical,19,,,08/28/2021,Cycle Inspection / Initial Inspection,40.90609655,-73.90431219,208,11,32300,2086317,2059530001,BX22
50086888,CAFECITO TO GO,Brooklyn,100,HENRY STREET,11201,9173598566,Coffee/Tea,02/13/2019,Violations were cited in the following area(s).,04J,"Appropriately scaled metal stem-type thermometer or thermocouple not provided or used to evaluate temperatures of potentially hazardous foods during cooking, cooling, reheating and holding.",Critical,42,,,08/28/2021,Pre-permit (Non-operational) / Initial Inspection,40.69774678,-73.9928883,302,33,501,3335928,3002310001,BK09
50078307,THE KUSTORY,Manhattan,126,LEXINGTON AVENUE,10016,9172615814,Pakistani,11/07/19,Violations were cited in the following area(s).,06C,"Food not protected from potential source of contamination during storage, preparation, transportation, display or service.",Critical,29,C,11/07/19,08/28/2021,Cycle Inspection / Re-inspection,40.74288059,-73.98229167,105,2,7200,1018209,1008840020,MN20
41390593,NASSAU BAR,Manhattan,118,NASSAU STREET,10038,2129620011,Bottled Beverages,01/24/2019,Violations were cited in the following area(s).,10F,"Non-food contact surface improperly constructed. Unacceptable material used. Non-food contact surface or equipment improperly maintained and/or not properly sealed, raised, spaced or movable to allow accessibility for cleaning on all sides, above and underneath the unit.",Not Critical,7,A,01/24/2019,08/28/2021,Cycle Inspection / Re-inspection,40.71086405,-74.006958,101,1,1501,1001274,1000920026,MN25
40401821,THREE DECKER RESTAURANT,Manhattan,1746,2 AVENUE,10128,2122899936,American,10/15/2019,Violations were cited in the following area(s).,10I,"Single service item reused, improperly stored, dispensed; not used when required.",Not Critical,11,A,10/15/2019,08/28/2021,Cycle Inspection / Initial Inspection,40.78100923,-73.94944069,108,5,15400,1050200,1015530049,MN32
50040450,BIEROCRACY,Queens,1223,JACKSON AVE,11101,2122891402,American,03/01/19,Violations were cited in the following area(s).,08A,Facility not vermin proof. Harborage or conditions conducive to attracting vermin to the premises and/or allowing vermin to exist.,Not Critical,18,B,03/01/19,08/28/2021,Cycle Inspection / Re-inspection,40.74370564,-73.95040018,402,26,700,4000507,4000600001,QN31
50078074,BURGER KING,Queens,19414,LINDEN BLVD,11412,9174951640,Hamburgers,08/09/19,Violations were cited in the following area(s).,10F,"Non-food contact surface improperly constructed. Unacceptable material used. Non-food contact surface or equipment improperly maintained and/or not properly sealed, raised, spaced or movable to allow accessibility for cleaning on all sides, above and underneath the unit.",Not Critical,13,A,08/09/19,08/28/2021,Cycle Inspection / Initial Inspection,40.69298088,-73.75750898,412,27,39400,4271595,4126100015,QN08
50078074,BURGER KING,Queens,19414,LINDEN BLVD,11412,9174951640,Hamburgers,08/09/19,Violations were cited in the following area(s).,10F,"Non-food contact surface improperly constructed. Unacceptable material used. Non-food contact surface or equipment improperly maintained and/or not properly sealed, raised, spaced or movable to allow accessibility for cleaning on all sides, above and underneath the unit.",Not Critical,13,A,08/09/19,08/28/2021,Cycle Inspection / Initial Inspection,40.69298088,-73.75750898,412,27,39400,4271595,4126100015,QN08
41502613,OAXACA TAQUERIA,Brooklyn,250,4 AVENUE,11215,7182221122,Mexican,12/28/2017,Violations were cited in the following area(s).,02C,Hot food item that has been cooked and refrigerated is being held for service without first being reheated to 165º F or above within 2 hours.,Critical,7,A,12/28/2017,08/28/2021,Cycle Inspection / Initial Inspection,40.67653422,-73.98364688,306,39,11900,3336264,3004480037,BK37
41171815,G'S CANDY STORE COFFEE SHOP,Manhattan,634,WEST  207 STREET,10034,2127420679,American,02/16/2018,Violations were cited in the following area(s).,08A,Facility not vermin proof. Harborage or conditions conducive to attracting vermin to the premises and/or allowing vermin to exist.,Not Critical,11,A,02/16/2018,08/28/2021,Cycle Inspection / Re-inspection,40.86830934,-73.92162053,112,10,29500,1064982,1022410014,MN01
40594703,RESTAURANT RIKI,Manhattan,141,EAST   45 STREET,10017,2129865604,Japanese,02/02/17,Violations were cited in the following area(s).,06D,"Food contact surface not properly washed, rinsed and sanitized after each use and following any activity when contamination may have occurred.",Critical,33,,,08/28/2021,Cycle Inspection / Initial Inspection,40.75316367,-73.97416067,106,4,9200,1036192,1013000026,MN19
50009013,PARK ASIA RESTAURANT,Brooklyn,801,66 STREET,11220,7188331688,Chinese,09/29/2017,Violations were cited in the following area(s).,10B,Plumbing not properly installed or maintained; anti-siphonage or backflow prevention device not provided where required; equipment or floor not properly drained; sewage disposal system in disrepair or not functioning properly.,Not Critical,11,A,09/29/2017,08/28/2021,Cycle Inspection / Initial Inspection,40.63181397,-74.01283663,310,38,12000,3142128,3057490001,BK34
50071060,LAS MARGARITAS SUNSET,Brooklyn,425,GRAHAM AVENUE,11211,3478897885,Mexican,04/18/2019,Violations were cited in the following area(s).,04L,Evidence of mice or live mice present in facility's food and/or non-food areas.,Critical,29,,,08/28/2021,Cycle Inspection / Initial Inspection,40.71773217,-73.94492187,301,34,49700,3068195,3027390024,BK90
40397189,BAGEL BOB'S,Manhattan,51,UNIVERSITY PLACE,10003,2125332627,Bagels/Pretzels,05/10/19,Violations were cited in the following area(s).,10F,"Non-food contact surface improperly constructed. Unacceptable material used. Non-food contact surface or equipment improperly maintained and/or not properly sealed, raised, spaced or movable to allow accessibility for cleaning on all sides, above and underneath the unit.",Not Critical,9,A,05/10/19,08/28/2021,Cycle Inspection / Initial Inspection,40.7324764,-73.99401396,102,2,5900,1009095,1005617502,MN23
50078935,THE APARTMENT,Brooklyn,97,WYTHE AVENUE,11249,2124706917,American,12/10/19,Violations were cited in the following area(s).,02G,Cold food item held above 41º F (smoked fish and reduced oxygen packaged foods above 38 ºF) except during necessary preparation.,Critical,10,A,12/10/19,08/28/2021,Cycle Inspection / Initial Inspection,40.72103171,-73.95879037,301,33,55700,3418123,3023030001,BK73
50046872,DUNKIN,Manhattan,166,WEST   72 STREET,10023,6467679048,Donuts,07/28/2021,Violations were cited in the following area(s).,10F,"Non-food contact surface improperly constructed. Unacceptable material used. Non-food contact surface or equipment improperly maintained and/or not properly sealed, raised, spaced or movable to allow accessibility for cleaning on all sides, above and underneath the unit.",Not Critical,12,A,07/28/2021,08/28/2021,Cycle Inspection / Initial Inspection,40.77821636,-73.98073685,107,6,15700,1029901,1011430060,MN14
41691159,GRAND CAFE,Bronx,1650,GRAND CONCOURSE,10457,7184661267,American,10/01/19,Violations were cited in the following area(s).,10F,"Non-food contact surface improperly constructed. Unacceptable material used. Non-food contact surface or equipment improperly maintained and/or not properly sealed, raised, spaced or movable to allow accessibility for cleaning on all sides, above and underneath the unit.",Not Critical,9,A,10/01/19,08/28/2021,Cycle Inspection / Initial Inspection,40.84346241,-73.91182995,204,16,22703,2007859,2028230001,BX41
50104474,RED MOUNTAIN NOODLE HOUSE,Queens,4413,KISSENA BLVD,11355,9172513358,,01/01/00,,,,Not Applicable,,,,08/28/2021,,40.75357537,-73.82241523,407,20,85900,4117221,4051920034,QN22
41382840,SAM'S BAGEL,Brooklyn,7715,5 AVENUE,11209,7186805700,American,07/25/2019,Violations were cited in the following area(s).,06C,"Food not protected from potential source of contamination during storage, preparation, transportation, display or service.",Critical,13,A,07/25/2019,08/28/2021,Cycle Inspection / Re-inspection,40.62778023,-74.02332285,310,43,13600,3149883,3059620005,BK31
41683743,"DUNKIN','BASKIN ROBBINS",Queens,13640,39 AVENUE,11354,7183580902,American,07/20/2017,Violations were cited in the following area(s).,02G,Cold food item held above 41º F (smoked fish and reduced oxygen packaged foods above 38 ºF) except during necessary preparation.,Critical,20,,,08/28/2021,Cycle Inspection / Initial Inspection,40.76058967,-73.82877129,407,20,87100,4112522,4049807502,QN22
50001189,CENT'ANNI,Brooklyn,742,FRANKLIN AVENUE,11238,7189425201,Italian,08/22/2018,Violations were cited in the following area(s).,02G,Cold food item held above 41º F (smoked fish and reduced oxygen packaged foods above 38 ºF) except during necessary preparation.,Critical,40,,,08/28/2021,Cycle Inspection / Initial Inspection,40.67305248,-73.95711496,308,35,21700,3029488,3011750053,BK61
41281381,RED BOWL CHINESE RESTAURANT,Brooklyn,208,BEDFORD AVENUE,11249,7183888898,Chinese,03/04/19,No violations were recorded at the time of this inspection.,,,Not Applicable,,,,08/28/2021,Administrative Miscellaneous / Initial Inspection,40.71700233,-73.95862332,301,33,55300,3062190,3023350024,BK73
50068392,SZECHAUN KITCHEN 86,Queens,23314,HILLSIDE AVE,11427,9176051111,Chinese,05/22/2019,Violations were cited in the following area(s).,02B,Hot food item not held at or above 140º F.,Critical,9,A,05/22/2019,08/28/2021,Cycle Inspection / Initial Inspection,40.73343386,-73.73653776,413,23,130100,4166273,4079420007,QN43
50046633,PANDA,Queens,7303,YELLOWSTONE BLVD,11375,7182688899,Chinese,08/17/2017,Violations were cited in the following area(s).,10F,"Non-food contact surface improperly constructed. Unacceptable material used. Non-food contact surface or equipment improperly maintained and/or not properly sealed, raised, spaced or movable to allow accessibility for cleaning on all sides, above and underneath the unit.",Not Critical,10,A,08/17/2017,08/28/2021,Cycle Inspection / Re-inspection,40.71768094,-73.85699462,406,29,70700,4075518,4031840007,QN17
40580639,UDON WEST,Manhattan,11,ST MARKS PLACE,10003,6466915269,Japanese,01/16/2018,Violations were cited in the following area(s).,09C,Food contact surface not properly maintained.,Not Critical,25,,,08/28/2021,Cycle Inspection / Initial Inspection,40.72922349,-73.98912896,103,2,3800,1006758,1004640054,MN22
41600677,XO TASTE,Manhattan,41,ELIZABETH STREET,10013,2123438339,Chinese,02/27/2020,Violations were cited in the following area(s).,06F,Wiping cloths soiled or not stored in sanitizing solution.,Critical,12,A,02/27/2020,08/28/2021,Cycle Inspection / Initial Inspection,40.71682585,-73.99681469,102,1,4100,1002621,1002040024,MN24
40395110,PRIMA PASTA & CAFE,Queens,16150,CROSSBAY BOULEVARD,11414,7186597278,Italian,02/19/2020,Violations were cited in the following area(s).,10F,"Non-food contact surface improperly constructed. Unacceptable material used. Non-food contact surface or equipment improperly maintained and/or not properly sealed, raised, spaced or movable to allow accessibility for cleaning on all sides, above and underneath the unit.",Not Critical,25,,,08/28/2021,Cycle Inspection / Initial Inspection,40.65497437,-73.83884996,410,32,89200,4294016,4140480083,QN57
50067685,BLUESTONE LANE,Manhattan,2,EAST   90 STREET,10128,6464651103,American,11/26/2018,Violations were cited in the following area(s).,04A,Food Protection Certificate not held by supervisor of food operations.,Critical,18,,,08/28/2021,Cycle Inspection / Initial Inspection,40.7839689,-73.95832877,108,4,15002,1046979,1015010069,MN40
50003498,BLACK FOREST BROOKLYN,Brooklyn,733,FULTON STREET,11217,7189350300,German,04/26/2019,Violations were cited in the following area(s).,04N,"Filth flies or food/refuse/sewage-associated (FRSA) flies present in facility’s food and/or non-food areas.  Filth flies include house flies, little house flies, blow flies, bottle flies and flesh flies.  Food/refuse/sewage-associated flies include fruit flies, drain flies and Phorid flies.",Critical,19,B,04/26/2019,08/28/2021,Cycle Inspection / Re-inspection,40.686617,-73.97517814,302,35,3500,3059297,3021160008,BK68
50042180,MARIO'S PIZZA 2,Bronx,1011,WESTCHESTER AVENUE,10459,7189916142,Pizza,09/14/2018,No violations were recorded at the time of this inspection.,,"The original nutritional fact labels and/or ingredient label for a cooking oil, shortening or margarine or food item sold in bulk, or acceptable manufacturer’s documentation not maintained on site.",Not Critical,,,,08/28/2021,Trans Fat / Initial Inspection,40.82406042,-73.89310319,202,17,12701,2005799,2027260070,BX27
50018573,TURCO,Manhattan,604,9 AVENUE,10036,2125108666,Middle Eastern,05/03/19,Violations were cited in the following area(s).,10I,"Single service item reused, improperly stored, dispensed; not used when required.",Not Critical,12,,,08/28/2021,Cycle Inspection / Initial Inspection,40.75923496,-73.99202622,104,3,12100,1024980,1010340101,MN15
41252980,SOL INCA,Queens,87-07,NORTHERN BOULEVARD,11372,7184461149,Peruvian,10/30/2019,Violations were cited in the following area(s).,04N,"Filth flies or food/refuse/sewage-associated (FRSA) flies present in facility’s food and/or non-food areas.  Filth flies include house flies, little house flies, blow flies, bottle flies and flesh flies.  Food/refuse/sewage-associated flies include fruit flies, drain flies and Phorid flies.",Critical,13,A,10/30/2019,08/28/2021,Cycle Inspection / Re-inspection,40.75606874,-73.88054335,403,25,33900,4034808,4014170044,QN28
40821987,MILANES SPANISH RESTAURANT,Manhattan,168,WEST   25 STREET,10001,2122439797,Spanish,08/29/2018,Violations were cited in the following area(s).,10I,"Single service item reused, improperly stored, dispensed; not used when required.",Not Critical,16,,,08/28/2021,Cycle Inspection / Initial Inspection,40.74493212,-73.99367721,104,3,9100,1014996,1008000076,MN13
41604545,HANG SHING KITCHEN,Queens,10409,METROPOLITAN AVENUE,11375,7187931550,Chinese,03/01/18,Violations were cited in the following area(s).,10F,"Non-food contact surface improperly constructed. Unacceptable material used. Non-food contact surface or equipment improperly maintained and/or not properly sealed, raised, spaced or movable to allow accessibility for cleaning on all sides, above and underneath the unit.",Not Critical,10,A,03/01/18,08/28/2021,Cycle Inspection / Initial Inspection,40.71009454,-73.84855972,406,29,73100,4077523,4032400037,QN17
41604545,HANG SHING KITCHEN,Queens,10409,METROPOLITAN AVENUE,11375,7187931550,Chinese,03/01/18,Violations were cited in the following area(s).,10F,"Non-food contact surface improperly constructed. Unacceptable material used. Non-food contact surface or equipment improperly maintained and/or not properly sealed, raised, spaced or movable to allow accessibility for cleaning on all sides, above and underneath the unit.",Not Critical,10,A,03/01/18,08/28/2021,Cycle Inspection / Initial Inspection,40.71009454,-73.84855972,406,29,73100,4077523,4032400037,QN17
50049617,BAKERY MOCANA,Manhattan,1540,SAINT NICHOLAS AVENUE,10040,2127401190,Bakery Products/Desserts,04/25/2019,Violations were cited in the following area(s).,20F,Current letter grade sign not posted.,Not Critical,,,,08/28/2021,Administrative Miscellaneous / Initial Inspection,40.85314792,-73.93091403,112,10,26900,1063806,1021580001,MN35
50038675,KAM MAN KITCHEN,Brooklyn,1500,NOSTRAND AVENUE,11226,7182823400,Chinese,02/13/2019,Violations were cited in the following area(s).,02B,Hot food item not held at or above 140º F.,Critical,7,A,02/13/2019,08/28/2021,Cycle Inspection / Initial Inspection,40.64947719,-73.94944345,317,40,82400,3117331,3051080041,BK95
41250025,YUNG SUN SEAFOOD RESTAURANT,Manhattan,47,EAST BROADWAY,10002,2123469888,Chinese,11/22/2019,Violations were cited in the following area(s).,09C,Food contact surface not properly maintained.,Not Critical,13,,,08/28/2021,Cycle Inspection / Initial Inspection,40.71357053,-73.99587697,103,1,800,1003420,1002800037,MN27
41706711,NOT GUILTY DELICATESSEN,Staten Island,19,HYATT STREET,10301,7184485143,Sandwiches,10/17/2019,Establishment Closed by DOHMH. Violations were cited in the following area(s) and those requiring immediate action were addressed.,06C,"Food not protected from potential source of contamination during storage, preparation, transportation, display or service.",Critical,53,,,08/28/2021,Cycle Inspection / Initial Inspection,40.64190596,-74.07717564,501,49,300,5110428,5000080099,SI22
50049572,ASIAN 59,Manhattan,207,EAST   59 STREET,10022,2123714777,Chinese/Japanese,01/10/17,Violations were cited in the following area(s).,06D,"Food contact surface not properly washed, rinsed and sanitized after each use and following any activity when contamination may have occurred.",Critical,22,B,01/10/17,08/28/2021,Cycle Inspection / Re-inspection,40.76136841,-73.96614013,108,4,11000,1043339,1014140005,MN31
50072493,RADIO AMSTERDAM,Manhattan,407,AMSTERDAM AVENUE,10024,2128821907,American,02/19/2019,Violations were cited in the following area(s).,04J,"Appropriately scaled metal stem-type thermometer or thermocouple not provided or used to evaluate temperatures of potentially hazardous foods during cooking, cooling, reheating and holding.",Critical,25,,,08/28/2021,Pre-permit (Operational) / Initial Inspection,40.78345013,-73.97808486,107,6,16500,1031753,1012100004,MN12
50046405,MUGHLAI INDIAN CUISINE,Manhattan,329,3 AVENUE,10010,2128890909,Indian,06/17/2019,Violations were cited in the following area(s).,02G,Cold food item held above 41º F (smoked fish and reduced oxygen packaged foods above 38 ºF) except during necessary preparation.,Critical,20,B,06/17/2019,08/28/2021,Cycle Inspection / Re-inspection,40.7397708,-73.98244767,106,2,6600,1019810,1009050059,MN20
40423819,ALFONSO'S PASTRY SHOPPE,Staten Island,1899,VICTORY BOULEVARD,10314,7182738802,Bakery Products/Desserts,02/25/2020,Violations were cited in the following area(s).,08A,Facility not vermin proof. Harborage or conditions conducive to attracting vermin to the premises and/or allowing vermin to exist.,Not Critical,40,,,08/28/2021,Cycle Inspection / Initial Inspection,40.61274188,-74.12721663,501,50,15100,5011065,5003780185,SI07
40387027,LA CASA DEL POLLO RESTAURANT,Queens,87-07,ROOSEVELT AVENUE,11372,7183971910,Chicken,03/21/2019,Violations were cited in the following area(s).,08A,Facility not vermin proof. Harborage or conditions conducive to attracting vermin to the premises and/or allowing vermin to exist.,Not Critical,11,A,03/21/2019,08/28/2021,Cycle Inspection / Initial Inspection,40.74814312,-73.8791212,403,21,27900,4036273,4014750042,QN28
50042777,NABAYA AFRICAN AMERICAN RESTUARANT,Bronx,860,MELROSE AVENUE,10451,7184012283,African,12/22/2017,Violations were cited in the following area(s).,04N,"Filth flies or food/refuse/sewage-associated (FRSA) flies present in facility’s food and/or non-food areas.  Filth flies include house flies, little house flies, blow flies, bottle flies and flesh flies.  Food/refuse/sewage-associated flies include fruit flies, drain flies and Phorid flies.",Critical,51,,,08/28/2021,Cycle Inspection / Initial Inspection,40.82360048,-73.9141399,203,17,14100,2001490,2023820001,BX35
50055556,SALLY ROOTS,Brooklyn,195,WYCKOFF AVENUE,11237,3474250888,Caribbean,04/10/18,Violations were cited in the following area(s).,06E,"Sanitized equipment or utensil, including in-use food dispensing utensil, improperly used or stored.",Critical,41,C,04/10/18,08/28/2021,Cycle Inspection / Re-inspection,40.70261327,-73.91649996,304,37,44300,3074871,3032810002,BK77
50086704,TOMIZ,Manhattan,18,EAST   41 STREET,10017,2127790740,Japanese,02/07/20,Violations were cited in the following area(s).,02B,Hot food item not held at or above 140º F.,Critical,23,,,08/28/2021,Cycle Inspection / Initial Inspection,40.7524101,-73.98044838,105,4,8200,1035324,1012750061,MN20
41704593,DUNKIN,Manhattan,680,ST NICHOLAS AVENUE,10030,2122810056,Donuts,05/11/17,Violations were cited in the following area(s).,10F,"Non-food contact surface improperly constructed. Unacceptable material used. Non-food contact surface or equipment improperly maintained and/or not properly sealed, raised, spaced or movable to allow accessibility for cleaning on all sides, above and underneath the unit.",Not Critical,4,A,05/11/17,08/28/2021,Cycle Inspection / Initial Inspection,40.82331478,-73.94508707,109,9,22700,1079811,1020510054,MN04
41704593,DUNKIN,Manhattan,680,ST NICHOLAS AVENUE,10030,2122810056,Donuts,05/11/17,Violations were cited in the following area(s).,10F,"Non-food contact surface improperly constructed. Unacceptable material used. Non-food contact surface or equipment improperly maintained and/or not properly sealed, raised, spaced or movable to allow accessibility for cleaning on all sides, above and underneath the unit.",Not Critical,4,A,05/11/17,08/28/2021,Cycle Inspection / Initial Inspection,40.82331478,-73.94508707,109,9,22700,1079811,1020510054,MN04
50070497,Tony's Pizza,Brooklyn,1412,SAINT JOHNS PLACE,11213,7188040966,Pizza,01/11/18,Violations were cited in the following area(s).,02G,Cold food item held above 41º F (smoked fish and reduced oxygen packaged foods above 38 ºF) except during necessary preparation.,Critical,19,,,08/28/2021,Pre-permit (Operational) / Initial Inspection,40.67061382,-73.93179597,308,35,35100,3037070,3013840035,BK61
50062365,H-YARD GOURMET DELI,Manhattan,450,9 AVENUE,10018,2128372896,Sandwiches,08/02/19,Violations were cited in the following area(s).,02G,Cold food item held above 41º F (smoked fish and reduced oxygen packaged foods above 38 ºF) except during necessary preparation.,Critical,30,,,08/28/2021,Cycle Inspection / Initial Inspection,40.75414089,-73.9957373,104,3,11100,1082258,1007590001,MN13
50033800,"CAFE, 911 MUSEUM",Manhattan,180,GREENWICH STREET,10007,2123128800,Coffee/Tea,11/02/16,Violations were cited in the following area(s).,10F,"Non-food contact surface improperly constructed. Unacceptable material used. Non-food contact surface or equipment improperly maintained and/or not properly sealed, raised, spaced or movable to allow accessibility for cleaning on all sides, above and underneath the unit.",Not Critical,13,,,08/28/2021,Cycle Inspection / Initial Inspection,40.71120944,-74.01230371,101,1,1300,1088798,1000580001,MN25
50033800,"CAFE, 911 MUSEUM",Manhattan,180,GREENWICH STREET,10007,2123128800,Coffee/Tea,11/02/16,Violations were cited in the following area(s).,10F,"Non-food contact surface improperly constructed. Unacceptable material used. Non-food contact surface or equipment improperly maintained and/or not properly sealed, raised, spaced or movable to allow accessibility for cleaning on all sides, above and underneath the unit.",Not Critical,13,,,08/28/2021,Cycle Inspection / Initial Inspection,40.71120944,-74.01230371,101,1,1300,1088798,1000580001,MN25
50076528,MINETTA TAVERN,Manhattan,113,MACDOUGAL STREET,10012,2124753850,French,05/08/19,Violations were cited in the following area(s).,06D,"Food contact surface not properly washed, rinsed and sanitized after each use and following any activity when contamination may have occurred.",Critical,16,,,08/28/2021,Cycle Inspection / Initial Inspection,40.72986354,-74.00060977,102,1,6500,1008728,1005420044,MN23
40709941,PEPOLINO,Manhattan,281,WEST BROADWAY,10013,2129669983,Italian,08/25/2021,Violations were cited in the following area(s).,08A,Facility not vermin proof. Harborage or conditions conducive to attracting vermin to the premises and/or allowing vermin to exist.,Not Critical,29,,,08/28/2021,Cycle Inspection / Initial Inspection,40.72099235,-74.00490273,101,1,3300,1002726,1002110016,MN24
41562412,EL RANCHO BURRITOS,Manhattan,359,WEST   45 STREET,10036,2125814206,Tex-Mex,08/23/2018,Violations were cited in the following area(s).,08A,Facility not vermin proof. Harborage or conditions conducive to attracting vermin to the premises and/or allowing vermin to exist.,Not Critical,11,A,08/23/2018,08/28/2021,Cycle Inspection / Re-inspection,40.7598359,-73.98999027,104,3,12100,1025002,1010360001,MN15
50003262,NANO,Manhattan,691,TENTH AVENUE,10036,6466494678,Latin American,05/02/18,Violations were cited in the following area(s).,09C,Food contact surface not properly maintained.,Not Critical,13,A,05/02/18,08/28/2021,Cycle Inspection / Initial Inspection,40.76311611,-73.99294267,104,3,12900,1026992,1010760030,MN15
41271436,MATSUNOYA,Manhattan,131,EAST   45 STREET,10017,6466928143,Japanese,07/25/2018,Violations were cited in the following area(s).,10B,Plumbing not properly installed or maintained; anti-siphonage or backflow prevention device not provided where required; equipment or floor not properly drained; sewage disposal system in disrepair or not functioning properly.,Not Critical,26,,,08/28/2021,Cycle Inspection / Initial Inspection,40.75322957,-73.97431224,106,4,9200,1081160,1013000122,MN19
41710037,STOOP JUICE,Brooklyn,443,7 AVENUE,11215,7188536850,"Juice, Smoothies, Fruit Salads",09/19/2019,Violations were cited in the following area(s).,04N,"Filth flies or food/refuse/sewage-associated (FRSA) flies present in facility’s food and/or non-food areas.  Filth flies include house flies, little house flies, blow flies, bottle flies and flesh flies.  Food/refuse/sewage-associated flies include fruit flies, drain flies and Phorid flies.",Critical,11,A,09/19/2019,08/28/2021,Cycle Inspection / Initial Inspection,40.66312338,-73.98470629,307,39,14900,3255793,3011047501,BK37
41665533,DELLAROCCO'S OF BROOKLYN,Brooklyn,214,HICKS STREET,11201,7188581010,Italian,02/19/2020,Violations were cited in the following area(s).,04L,Evidence of mice or live mice present in facility's food and/or non-food areas.,Critical,13,A,02/19/2020,08/28/2021,Cycle Inspection / Re-inspection,40.69501313,-73.99596468,302,33,301,3002039,3002470035,BK09
50044761,SUBWAY,Manhattan,2793,8 AVENUE,10039,9173785700,Sandwiches,05/09/19,Violations were cited in the following area(s).,06D,"Food contact surface not properly washed, rinsed and sanitized after each use and following any activity when contamination may have occurred.",Critical,8,A,05/09/19,08/28/2021,Cycle Inspection / Initial Inspection,40.82503335,-73.94031614,110,9,25900,1060832,1020450072,MN03
40367534,MR BROADWAY KOSHER RESTAURANT,Manhattan,1372,BROADWAY,10018,2129212152,Jewish/Kosher,01/23/2020,Violations were cited in the following area(s).,10F,"Non-food contact surface improperly constructed. Unacceptable material used. Non-food contact surface or equipment improperly maintained and/or not properly sealed, raised, spaced or movable to allow accessibility for cleaning on all sides, above and underneath the unit.",Not Critical,27,,,08/28/2021,Cycle Inspection / Initial Inspection,40.75226286,-73.98745408,105,4,10900,1080609,1008130023,MN17
50066894,EL TAQUITOS,Bronx,2511,3 AVENUE,10451,7184023895,Mexican,01/09/19,Violations were cited in the following area(s).,06D,"Food contact surface not properly washed, rinsed and sanitized after each use and following any activity when contamination may have occurred.",Critical,13,A,01/09/19,08/28/2021,Cycle Inspection / Initial Inspection,40.81032559,-73.92823847,201,8,5100,2000791,2023200042,BX39
50107716,,Brooklyn,530,DRIGGS AVENUE,11211,7183886607,,01/01/00,,,,Not Applicable,,,,08/28/2021,,40.71750088,-73.9559427,301,33,55300,3324833,3023200019,BK73
50067454,GOOD EATS BISTRO,Queens,10015,DITMARS BLVD,11369,5163224390,American,01/16/2018,Violations were cited in the following area(s).,20F,Current letter grade sign not posted.,Not Critical,,,,08/28/2021,Administrative Miscellaneous / Initial Inspection,40.7701137,-73.8704454,403,21,35700,4040807,4016340001,QN27
50051650,RIKO,Manhattan,409,8 AVENUE,10001,2126437555,Peruvian,03/16/2017,Violations were cited in the following area(s).,06C,"Food not protected from potential source of contamination during storage, preparation, transportation, display or service.",Critical,32,,,08/28/2021,Cycle Inspection / Initial Inspection,40.74992491,-73.9951204,104,3,10300,1013534,1007540039,MN13
41470133,COTTON CLUB,Manhattan,664,WEST  125 STREET,10027,2126637980,American,09/15/2017,Violations were cited in the following area(s).,04L,Evidence of mice or live mice present in facility's food and/or non-food areas.,Critical,24,B,09/15/2017,08/28/2021,Cycle Inspection / Re-inspection,40.81726595,-73.95974575,109,7,21900,,1,MN06
50099727,JE COFFEE SHOP,Brooklyn,162,IRVING AVENUE,11237,7184844060,Coffee/Tea,12/10/19,Violations were cited in the following area(s).,05D,Hand washing facility not provided in or near food preparation area and toilet room. Hot and cold running water at adequate pressure to enable cleanliness of employees not provided at facility. Soap and an acceptable hand-drying device not provided.,Critical,35,,,08/28/2021,Pre-permit (Operational) / Initial Inspection,40.70230849,-73.9201971,304,37,42900,3325539,3032470036,BK77
41328070,VILLABATE-ALBA PASTICCERIA,Brooklyn,7001,18 AVENUE,11204,7183318430,Bakery Products/Desserts,08/18/2016,Violations were cited in the following area(s).,10B,Plumbing not properly installed or maintained; anti-siphonage or backflow prevention device not provided where required; equipment or floor not properly drained; sewage disposal system in disrepair or not functioning properly.,Not Critical,55,,,08/28/2021,Cycle Inspection / Initial Inspection,40.61616373,-73.99315637,311,47,26000,3157322,3061720010,BK28
41328070,VILLABATE-ALBA PASTICCERIA,Brooklyn,7001,18 AVENUE,11204,7183318430,Bakery Products/Desserts,08/18/2016,Violations were cited in the following area(s).,10B,Plumbing not properly installed or maintained; anti-siphonage or backflow prevention device not provided where required; equipment or floor not properly drained; sewage disposal system in disrepair or not functioning properly.,Not Critical,55,,,08/28/2021,Cycle Inspection / Initial Inspection,40.61616373,-73.99315637,311,47,26000,3157322,3061720010,BK28
50079752,CHARCOAL BBQ,Staten Island,1351,FOREST AVENUE,10302,9173256502,Barbecue,07/11/18,Violations were cited in the following area(s).,10F,"Non-food contact surface improperly constructed. Unacceptable material used. Non-food contact surface or equipment improperly maintained and/or not properly sealed, raised, spaced or movable to allow accessibility for cleaning on all sides, above and underneath the unit.",Not Critical,12,A,07/11/18,08/28/2021,Pre-permit (Operational) / Initial Inspection,40.62594977,-74.1344504,501,49,20100,5024915,5010520001,SI07
50094561,GRAIN TEA YOGURT CAFE,Brooklyn,4724,5 AVENUE,11220,9175308697,Frozen Desserts,08/21/2019,Violations were cited in the following area(s).,08C,Pesticide use not in accordance with label or applicable laws. Prohibited chemical used/stored. Open bait station used.,Not Critical,24,B,08/21/2019,08/28/2021,Pre-permit (Operational) / Re-inspection,40.64660599,-74.00876386,307,38,8000,3012246,3007650043,BK32
41628343,ASIAN TASTE 86,Queens,86-10,WHITNEY AVENUE,11373,7187798686,Indonesian,08/19/2021,Violations were cited in the following area(s).,02H,"Food not cooled by an approved method whereby the internal product temperature is reduced from 140º F to 70º F or less within 2  hours, and from 70º F to 41º F or less within 4 additional hours.",Critical,43,,,08/28/2021,Cycle Inspection / Initial Inspection,40.74179413,-73.87879355,404,25,47100,4311951,4015790022,QN29
41606775,BARO,Manhattan,34,WEST   32 STREET,10001,2127360029,Korean,02/01/17,Violations were cited in the following area(s).,06E,"Sanitized equipment or utensil, including in-use food dispensing utensil, improperly used or stored.",Critical,13,,,08/28/2021,Cycle Inspection / Initial Inspection,40.74781906,-73.98710123,105,4,7600,1015832,1008330063,MN17
50062666,LILI MEXICAN RESTAURANT,Bronx,415,EAST  138 STREET,10454,3472978550,Mexican,07/13/2017,Violations were cited in the following area(s).,08A,Facility not vermin proof. Harborage or conditions conducive to attracting vermin to the premises and/or allowing vermin to exist.,Not Critical,14,B,07/13/2017,08/28/2021,Pre-permit (Operational) / Re-inspection,40.8087708,-73.92208466,201,8,3900,2092092,2022830001,BX39
41706664,EASTWOOD,Manhattan,200,CLINTON STREET,10002,2122330124,Middle Eastern,10/21/2019,Violations were cited in the following area(s).,06C,"Food not protected from potential source of contamination during storage, preparation, transportation, display or service.",Critical,7,,,08/28/2021,Cycle Inspection / Initial Inspection,40.71420392,-73.98714022,103,1,201,1003735,1002860040,MN28
40366543,JARDIN DE CHINA REST,Queens,3737,JUNCTION BOULEVARD,11368,7184763755,Chinese,01/27/2020,Violations were cited in the following area(s).,02G,Cold food item held above 41º F (smoked fish and reduced oxygen packaged foods above 38 ºF) except during necessary preparation.,Critical,24,B,01/27/2020,08/28/2021,Cycle Inspection / Re-inspection,40.7507548,-73.87036048,403,21,37500,4043854,4017590046,QN26
50079025,NO. 8 KITCHEN & BAR,Queens,3528,FARRINGTON ST,11354,9178602086,Chinese,05/16/2019,Violations were cited in the following area(s).,06B,"Tobacco use, eating, or drinking from open container in food preparation, food storage or dishwashing area observed.",Critical,27,N,,08/28/2021,Cycle Inspection / Initial Inspection,40.76403582,-73.83162147,407,20,86900,4450171,4049580040,QN22
50079025,NO. 8 KITCHEN & BAR,Queens,3528,FARRINGTON ST,11354,9178602086,Chinese,05/16/2019,Violations were cited in the following area(s).,06B,"Tobacco use, eating, or drinking from open container in food preparation, food storage or dishwashing area observed.",Critical,27,N,,08/28/2021,Cycle Inspection / Initial Inspection,40.76403582,-73.83162147,407,20,86900,4450171,4049580040,QN22
41628404,F.OTTOMANELLI BURGERS & BELGIUM FRIES,Queens,60-15,WOODSIDE AVENUE,11377,7184467489,American,12/03/18,Violations were cited in the following area(s).,10B,Plumbing not properly installed or maintained; anti-siphonage or backflow prevention device not provided where required; equipment or floor not properly drained; sewage disposal system in disrepair or not functioning properly.,Not Critical,10,A,12/03/18,08/28/2021,Cycle Inspection / Re-inspection,40.74506803,-73.90428452,402,26,25900,4030037,4012930001,QN63
41236382,DUNKIN,Brooklyn,9243,4 AVENUE,11209,7187454060,Donuts,03/20/2019,Violations were cited in the following area(s).,06D,"Food contact surface not properly washed, rinsed and sanitized after each use and following any activity when contamination may have occurred.",Critical,9,A,03/20/2019,08/28/2021,Cycle Inspection / Initial Inspection,40.61739776,-74.03054478,310,43,5800,3000000,3061080007,BK31
50086941,BEST WOK NO 1,Brooklyn,3411A,AVENUE H,,7184349785,Chinese,08/29/2019,Violations were cited in the following area(s).,10F,"Non-food contact surface improperly constructed. Unacceptable material used. Non-food contact surface or equipment improperly maintained and/or not properly sealed, raised, spaced or movable to allow accessibility for cleaning on all sides, above and underneath the unit.",Not Critical,13,A,08/29/2019,08/28/2021,Cycle Inspection / Re-inspection,0,0,,,,,3,
50086941,BEST WOK NO 1,Brooklyn,3411A,AVENUE H,,7184349785,Chinese,08/29/2019,Violations were cited in the following area(s).,10F,"Non-food contact surface improperly constructed. Unacceptable material used. Non-food contact surface or equipment improperly maintained and/or not properly sealed, raised, spaced or movable to allow accessibility for cleaning on all sides, above and underneath the unit.",Not Critical,13,A,08/29/2019,08/28/2021,Cycle Inspection / Re-inspection,0,0,,,,,3,
41631052,ONE STOP BEER SHOP,Brooklyn,134,KINGSLAND AVENUE,11222,7185990128,American,03/30/2017,Violations were cited in the following area(s).,08A,Facility not vermin proof. Harborage or conditions conducive to attracting vermin to the premises and/or allowing vermin to exist.,Not Critical,19,,,08/28/2021,Cycle Inspection / Initial Inspection,40.72099094,-73.94087505,301,34,44900,3069850,3028340001,BK90
50103346,BROOKLYN NATIONAL DELI,Manhattan,625,8 AVENUE,10018,5167768138,,01/01/00,,,,Not Applicable,,,,08/28/2021,,40.75618542,-73.99056473,104,3,11500,1083268,1010320029,MN15
50102296,BIG JOHN'S COFFEE SHOP & GRILL,Brooklyn,876,4 AVENUE,11232,7189651808,American,02/05/20,Violations were cited in the following area(s).,10B,Plumbing not properly installed or maintained; anti-siphonage or backflow prevention device not provided where required; equipment or floor not properly drained; sewage disposal system in disrepair or not functioning properly.,Not Critical,13,N,,08/28/2021,Pre-permit (Non-operational) / Initial Inspection,40.65668239,-74.00196424,307,38,10100,3010004,3006760045,BK32
50043671,PADDY'S OF PARK SLOPE,Brooklyn,273,13 STREET,11215,7184997553,American,02/01/17,Violations were cited in the following area(s).,04L,Evidence of mice or live mice present in facility's food and/or non-food areas.,Critical,11,A,02/01/17,08/28/2021,Cycle Inspection / Re-inspection,40.6665465,-73.98783793,306,39,13900,3023250,3010290074,BK37
41642324,TRADESMAN,Brooklyn,222,BUSHWICK AVENUE,11206,7183865300,American,08/22/2018,Violations were cited in the following area(s).,10F,"Non-food contact surface improperly constructed. Unacceptable material used. Non-food contact surface or equipment improperly maintained and/or not properly sealed, raised, spaced or movable to allow accessibility for cleaning on all sides, above and underneath the unit.",Not Critical,17,,,08/28/2021,Cycle Inspection / Initial Inspection,40.70814493,-73.93993066,301,34,49300,3071161,3030540020,BK78
50059578,EXCELLENT DUMPLING HOUSE,Manhattan,165,WEST   23 STREET,10011,2129898885,Chinese,04/14/2017,Violations were cited in the following area(s).,10F,"Non-food contact surface improperly constructed. Unacceptable material used. Non-food contact surface or equipment improperly maintained and/or not properly sealed, raised, spaced or movable to allow accessibility for cleaning on all sides, above and underneath the unit.",Not Critical,3,A,04/14/2017,08/28/2021,Pre-permit (Operational) / Re-inspection,40.74363389,-73.9945254,104,3,9100,1014944,1007990008,MN13
41097313,LA FLOR DEL PARAISO RESTAURANT,Queens,1715,CORNELIA STREET,11385,7183812970,Spanish,08/29/2018,Violations were cited in the following area(s).,04H,"Raw, cooked or prepared food is adulterated, contaminated, cross-contaminated, or not discarded in accordance with HACCP plan.",Critical,60,C,08/29/2018,08/28/2021,Cycle Inspection / Re-inspection,40.70034574,-73.90545256,405,34,55100,4082752,4034610053,QN20
50009874,EL PALACIO SEAFOOD MARKET,Manhattan,1049,SAINT NICHOLAS AVENUE,10032,2125680770,Seafood,02/15/2019,Violations were cited in the following area(s).,06F,Wiping cloths soiled or not stored in sanitizing solution.,Critical,18,,,08/28/2021,Cycle Inspection / Initial Inspection,40.83647053,-73.94003118,112,7,24500,1062949,1021220153,MN36
41087130,FRESH & CO,Manhattan,569,LEXINGTON AVENUE,10022,2122232670,American,12/12/17,Violations were cited in the following area(s).,09C,Food contact surface not properly maintained.,Not Critical,7,A,12/12/17,08/28/2021,Cycle Inspection / Initial Inspection,40.75690977,-73.97204402,106,4,10000,1036458,1013057501,MN19
50014052,RED LOBSTER,Brooklyn,455,GATEWAY DRIVE,11239,4072455773,Seafood,03/22/2018,Violations were cited in the following area(s).,08A,Facility not vermin proof. Harborage or conditions conducive to attracting vermin to the premises and/or allowing vermin to exist.,Not Critical,13,A,03/22/2018,08/28/2021,Cycle Inspection / Re-inspection,40.6509838,-73.86929376,305,42,107000,3348836,3044520550,BK82